City_ID,City,Country,Max Temp,Current Description,Lat,Lng,Hotel Name
1,Pisco,PE,68.05,clear sky,-13.7,-76.2167,Hotel San Isidro Oficial
2,Chama,CH,49.28,broken clouds,47.1821,8.4636,City Garden Hotel
3,Rikitea,PF,73.04,moderate rain,-23.1203,-134.9692,People ThankYou
5,Ponta Do Sol,PT,70.72,broken clouds,32.6667,-17.1,Hotel do Campo
6,Hobart,AU,54.27,broken clouds,-42.8794,147.3294,St Ives Hobart Accommodation Tasmania
7,Te Anau,NZ,60.91,overcast clouds,-45.4167,167.7167,Kingsgate Hotel Te Anau
8,Asau,RO,45.05,broken clouds,46.4333,26.4,Casa Mika Ciobanus
9,Mataura,NZ,58.48,overcast clouds,-46.1927,168.8643,Ellie's Villa
10,Bluff,NZ,58.8,overcast clouds,-46.6,168.3333,Bluff Homestead - Guesthouse & Campervan Park
11,Mar Del Plata,AR,69.84,broken clouds,-38.0023,-57.5575,Gran Hotel Mar del Plata
12,Punta Arenas,CL,55.51,broken clouds,-53.15,-70.9167,Hotel Hain
13,Bethel,US,44.76,clear sky,41.3712,-73.414,Courtyard by Marriott Danbury
15,Ushuaia,AR,55.06,broken clouds,-54.8,-68.3,Albatross Hotel
16,Kodiak,US,42.31,moderate rain,57.79,-152.4072,Best Western Kodiak Inn
17,Saint-Philippe,RE,69.39,scattered clouds,-21.3585,55.7679,Le four à pain
18,Carballo,ES,61.02,overcast clouds,43.213,-8.691,Pazo do Souto
27,Kruisfontein,ZA,60.89,broken clouds,-34.0033,24.7314,Oyster Bay House Rental
29,East London,ZA,67.17,broken clouds,-33.0153,27.9116,Tu Casa
30,Busselton,AU,59.16,broken clouds,-33.65,115.3333,Observatory Guest House
34,Arraial Do Cabo,BR,73.36,light rain,-22.9661,-42.0278,Pousada Porto Praia
35,Juneau,US,43.21,scattered clouds,58.3019,-134.4197,"Baranof Downtown, BW Signature Collection"
36,Carnarvon,AU,66.87,overcast clouds,-24.8667,113.6333,Hospitality Carnarvon
37,Sakakah,SA,63.97,overcast clouds,29.9697,40.2064,Fakhamat Al Orjoana Apartment
38,Posse,BR,68.27,overcast clouds,-14.0931,-46.3694,Pousada das Palmeiras
39,Albany,US,40.51,overcast clouds,42.6001,-73.9662,
40,Freeport,US,48.18,clear sky,40.6576,-73.5832,The Freeport Inn and Marina
42,Banjar,ID,78.96,overcast clouds,-8.19,114.9675,The Hamsa Resort
43,Plettenberg Bay,ZA,61.16,overcast clouds,-34.0527,23.3716,Thanda Vista B&B
44,Atuona,PF,78.03,clear sky,-9.8,-139.0333,Villa Enata
45,Healesville,AU,56.62,overcast clouds,-37.65,145.5167,Tuck Inn Yarra Valley Accommodation Healesville
48,Victoria,HK,74.32,overcast clouds,22.2855,114.1577,Mini Central
50,Banda Aceh,ID,78.37,overcast clouds,5.5577,95.3222,OYO 884 Rumoh PMI Hotel
51,San Patricio,US,51.67,overcast clouds,28.017,-97.5169,"Motel 6 Sinton, TX"
52,San Pedro,PH,78.03,scattered clouds,14.35,121.0167,Palines Apartment and Guesthouse
54,Roebourne,AU,72.12,clear sky,-20.7833,117.1333,Latitude20 Roebourne Village
55,Fortuna,US,64.92,clear sky,40.5982,-124.1573,Super 8 by Wyndham Fortuna
56,Georgetown,MY,78.73,few clouds,5.4112,100.3354,Cititel Penang
57,Saraland,US,53.62,overcast clouds,30.8207,-88.0706,Microtel Inn & Suites by Wyndham Saraland/North Mobile
58,Fukue,JP,61.43,light rain,32.6881,128.8419,Goto Guesthouse Utojuku & SA Car Rental
61,Airai,TL,65.1,overcast clouds,-8.9266,125.4092,
63,Flinders,AU,62.19,clear sky,-34.5833,150.8552,Shellharbour Resort & Conference Centre
65,Hermanus,ZA,56.8,overcast clouds,-34.4187,19.2345,Misty Waves Boutique Hotel
66,New Norfolk,AU,53.91,overcast clouds,-42.7826,147.0587,The Shingles Riverside Cottages
67,Port Elizabeth,ZA,64.31,clear sky,-33.918,25.5701,39 On Nile Guest House
68,Souillac,MU,68.38,scattered clouds,-20.5167,57.5167,Shanti Maurice Resort & Spa
69,Dingle,PH,77.16,overcast clouds,10.9995,122.6711,SEGAYA PROPERTY
70,Kalakamati,BW,71.22,clear sky,-20.5929,27.3121,
71,Vila Velha,BR,71.55,broken clouds,-20.3297,-40.2925,Hotel Vitória Palace
72,Puerto Ayora,EC,75.16,broken clouds,-0.7393,-90.3518,Finch Bay Galapagos Hotel
75,Nouadhibou,MR,76.98,clear sky,20.931,-17.0347,El Medina
77,Ancud,CL,56.59,scattered clouds,-41.8697,-73.8203,Hotel Arena Gruesa
81,Aracataca,CO,78.66,light rain,10.5918,-74.1898,Hostal de los buendia
82,Karratha,AU,71.98,clear sky,-20.7377,116.8463,ibis Styles Karratha
85,Cape Town,ZA,62.28,clear sky,-33.9258,18.4232,"Radisson Blu Hotel Waterfront, Cape Town"
90,Eyl,SO,77.18,clear sky,7.9803,49.8164,EYL AQUE SYSTEM
91,Waddan,LY,63.01,clear sky,29.1614,16.139,محل الشريف محمد العايب
92,Kattivakkam,IN,75.29,scattered clouds,13.2167,80.3167,Euronova Freezer
94,Paranaiba,BR,78.35,clear sky,-19.6772,-51.1908,Villa Rica Park Hotel GMR
96,Izmit,TR,40.98,few clouds,40.7669,29.9169,Seka Park Hotel
98,Lebu,CL,60.13,clear sky,-37.6167,-73.65,Hostal Las Lilas
100,Manga,BF,74.61,few clouds,11.6636,-1.0731,Auberge du 11 décembre de la cité CNSS à Manga
102,Chuy,UY,66.09,clear sky,-33.6971,-53.4616,Nuevo Hotel Plaza
103,Granville,AU,65.01,few clouds,-33.8333,151.0167,Mercure Sydney Parramatta
105,Vila Franca Do Campo,PT,65.19,broken clouds,37.7167,-25.4333,Pestana Bahia Praia
108,Comodoro Rivadavia,AR,60.66,clear sky,-45.8667,-67.5,Austral Hotel
109,Espanola,US,43.14,few clouds,35.9911,-106.0806,Santa Claran Hotel Casino
110,Naze,JP,68.92,light rain,28.3667,129.4833,Shishime Hotel
111,Ballina,AU,66.78,overcast clouds,-28.8667,153.5667,Ramada Hotel & Suites by Wyndham Ballina Byron
113,Saint-Pierre,RE,69.91,clear sky,-21.3393,55.4781,Alize Plage
115,Saint George,US,54.25,clear sky,37.1041,-113.5841,Best Western Plus Abbey Inn
117,Sarakhs,IR,50.77,broken clouds,36.5449,61.1577,مهمان سرای شرکت گاز
119,Huarmey,PE,65.97,overcast clouds,-10.0681,-78.1522,Hotel Miramar
121,Russell,US,51.4,few clouds,32.3502,-85.1999,Macs
127,Awash,ET,68.47,clear sky,8.9833,40.1667,Kediga hotel
128,Bambous Virieux,MU,69.22,scattered clouds,-20.3428,57.7575,Casa Tia Villa
129,Avarua,CK,78.85,scattered clouds,-21.2078,-159.775,Paradise Inn
132,Castro,BR,62.26,clear sky,-24.7911,-50.0119,CHACARA BAILLY
133,Ribeira Grande,PT,64.78,broken clouds,38.5167,-28.7,Quinta da Meia Eira
136,Bredasdorp,ZA,57.76,overcast clouds,-34.5322,20.0403,Bredasdorp Country Manor
137,Bengkulu,ID,73.33,light rain,-3.8004,102.2655,Grage Hotel Bengkulu
139,Irbil,IQ,53.42,thunderstorm with light rain,36.1926,44.0106,Erbil International Hotel
140,Port Hawkesbury,CA,45.18,overcast clouds,45.6169,-61.3485,MacKenzie House Tourist Home B&B
141,Broken Hill,AU,57.87,clear sky,-31.95,141.4333,Royal Exchange Hotel
142,Ramos Arizpe,MX,73.81,haze,25.55,-100.9667,Mario's Inn
143,Hualmay,PE,65.66,overcast clouds,-11.0964,-77.6139,Hotel Villa Kitzia Huacho
144,Pozo Colorado,PY,73.98,clear sky,-23.4923,-58.7972,Hospedaje La Norteña
145,Thabazimbi,ZA,74.5,clear sky,-24.5917,27.4116,Eagle's Rest
148,Sekondi,GH,77.45,light rain,4.937,-1.7128,Mapees Guest House
149,Burnie,AU,51.94,clear sky,-41.0667,145.9167,Beachfront Voyager Motor Inn
150,Nangomba,TZ,73.87,few clouds,-10.9,38.5,
153,Mahebourg,MU,69.26,scattered clouds,-20.4081,57.7,Shandrani Beachcomber Resort & Spa
154,Lardos,GR,62.42,clear sky,36.0942,28.0157,Lindos Princess Beach Hotel
158,Mizdah,LY,57.6,clear sky,31.4451,12.9801,محمدالمبروك الاريقط
160,Buraydah,SA,68.45,overcast clouds,26.326,43.975,Mövenpick Qassim
161,San Cristobal,VE,73.58,broken clouds,7.7669,-72.225,Pirineos
162,Abu Samrah,SY,56.68,few clouds,35.3029,37.1841,
163,Chyhyryn,UA,42.4,overcast clouds,49.0838,32.6555,Panatseya
164,Sumbe,AO,75.49,overcast clouds,-11.2061,13.8437,Hotel Ritz Sumbe
165,Alpharetta,US,46.31,overcast clouds,34.0754,-84.2941,Hilton Garden Inn Atlanta Northpoint
166,Alghero,IT,57.29,clear sky,40.5589,8.3181,Smy Carlos V Alghero
167,Middelburg,ZA,66.78,clear sky,-25.7751,29.4648,Oregon Place Guest House
168,Poum,NC,79.38,overcast clouds,-20.2333,164.0167,
170,Port Alfred,ZA,62.19,broken clouds,-33.5906,26.891,The Halyards Hotel & Spa
171,Yeppoon,AU,76.78,overcast clouds,-23.1333,150.7333,Villa Mar Colina
173,Huicungo,PE,70.16,overcast clouds,-7.2833,-76.8,Gran Pajaten Trek
178,Kaitangata,NZ,55.45,overcast clouds,-46.2817,169.8464,Kaitangata Motor Camp
180,Aswan,EG,61.9,clear sky,24.0934,32.907,Nuba Nile
181,Ukiah,US,73.65,clear sky,39.1502,-123.2078,Hampton Inn Ukiah
182,Peniche,PT,66.11,overcast clouds,39.3558,-9.3811,Hotel Star inn Peniche
184,Port Hedland,AU,69.85,broken clouds,-20.3167,118.5667,The Esplanade Hotel
185,Imphal,IN,50.36,clear sky,24.8167,93.95,State Guest House
186,Ponte San Pietro,IT,51.04,overcast clouds,45.6963,9.5849,ART & HOTEL TREVIOLO
187,Oyem,GA,67.46,overcast clouds,1.5995,11.5793,Commissariat de police
191,Bahia Blanca,AR,69.3,few clouds,-38.7196,-62.2724,Hotel Argos
193,Penzance,GB,50.68,overcast clouds,50.1186,-5.5371,Artist Residence Penzance
196,Nokaneng,BW,77.74,clear sky,-19.6667,22.2667,
197,Imbituba,BR,66.22,clear sky,-28.24,-48.6703,Praia Hotel Imbituba
199,Labuan,MY,79.16,few clouds,5.2767,115.2417,Tiara Labuan Hotel
200,Esperance,AU,62.83,overcast clouds,-33.8667,121.9,Hospitality Esperance
201,Bergen,NO,46.81,clear sky,60.392,5.328,Clarion Collection Hotel Havnekontoret
205,Jalu,LY,62.56,clear sky,29.0331,21.5482,صاحبة الفخامة
206,Eldama Ravine,KE,56.59,light rain,0.0516,35.7308,Chambai Springs Hotel
207,Sao Felix Do Xingu,BR,74.3,moderate rain,-6.6447,-51.995,Rio Xingu Camping
208,Pitimbu,BR,79.39,scattered clouds,-7.4706,-34.8086,Reserva do Abiaí
209,Adrar,MR,76.28,clear sky,20.5022,-10.0711,
210,Sitka,US,51.69,few clouds,57.0531,-135.33,Westmark Sitka
214,Lishui,CN,60.8,overcast clouds,28.4604,119.9103,Bayi Hotel
216,Bloomfield,US,47.84,overcast clouds,40.8068,-74.1854,Troy Carroll
218,Gat,IL,64.4,scattered clouds,31.61,34.7642,OlusHome
220,Xai-Xai,MZ,70.07,few clouds,-25.0519,33.6442,Complexo da Familia
221,Cidreira,BR,67.73,clear sky,-30.1811,-50.2056,Hotel Castelo
223,Rawson,AR,63.73,clear sky,-43.3002,-65.1023,Hosteria Sampedro
224,Trybukhivtsi,UA,42.69,overcast clouds,49.0436,25.4581,"БУЧАЧ, РЕСТОРАН"
227,Mogadishu,SO,79.05,clear sky,2.0371,45.3438,Hotel Juba
228,Dunedin,NZ,55.8,light rain,-45.8742,170.5036,Scenic Hotel Southern Cross
229,Itu,BR,74.32,few clouds,-23.2642,-47.2992,Hotel KK
230,Thanh Hoa,VN,73.02,few clouds,19.8,105.7667,Khách Sạn Ngọc Ly 8
233,Ballater,GB,48.0,light rain,57.0493,-3.0402,Balmoral Arms
234,Palu,ID,78.08,overcast clouds,-0.8917,119.8707,Hotel Santika Palu
236,Kawasaki,JP,54.01,scattered clouds,35.5206,139.7172,Toyoko INN Kawasaki-Ekimae Shiyakusho-dori
237,Aguimes,ES,72.66,clear sky,27.9054,-15.4461,Hotel Villa de Aguimes
238,Havelock,US,60.78,few clouds,34.8791,-76.9013,Sherwood Motel
239,Kendari,ID,76.78,overcast clouds,-3.945,122.4989,Hotel Wixel
241,Paita,PE,65.43,broken clouds,-5.0892,-81.1144,Hotel Náutico de Paita
243,Morehead,US,40.98,overcast clouds,37.2711,-87.1764,CCI Express Inn
244,Durban,ZA,69.93,overcast clouds,-29.8579,31.0292,Hilton Durban
250,Antofagasta,CL,65.48,clear sky,-23.65,-70.4,"Holiday Inn Express Antofagasta, an IHG Hotel"
252,Muros,ES,62.1,overcast clouds,42.7762,-9.0603,Apartment Av. Castelao
253,Port Hardy,CA,41.18,scattered clouds,50.6996,-127.4199,Airport Inn-Port Hardy
255,Mbeya,TZ,64.18,broken clouds,-8.9,33.45,Leda Lodge
256,Pavagada,IN,65.57,clear sky,14.1,77.2667,HOTEL GAYATHRI COMFORTS
257,Constitucion,CL,61.39,scattered clouds,-35.3333,-72.4167,Hotel Boutique Las Azucenas
258,Kotido,UG,70.95,broken clouds,2.9806,34.1331,Loware Joseph Mukasa's Residence
260,Floro,NO,51.96,clear sky,61.5996,5.0328,Kinn Hotell Florø
262,Coihaique,CL,60.75,scattered clouds,-45.5752,-72.0662,Diego De Almagro Coyhaique
265,Labuhan,ID,79.75,overcast clouds,-6.8844,112.2051,DoubleFAG
266,Mayo,US,47.1,clear sky,38.8876,-76.5119,Resorts Resource Group International
267,Klaksvik,FO,50.92,light rain,62.2266,-6.589,Airbnb rooms
268,Amapa,BR,75.78,overcast clouds,1.0,-52.0,
269,Le Port,RE,70.25,scattered clouds,-20.9373,55.2919,KORBEY D'OR OUEST
270,Yulara,AU,71.24,few clouds,-25.2406,130.9889,Desert Gardens Hotel - Ayers Rock Resort
272,Mahanje,TZ,66.47,scattered clouds,-9.9333,35.3333,Amani social Hall
276,Kankon,IN,74.62,light rain,15.0167,74.0167,Palolem Beach Resort
278,Victor Harbor,AU,58.68,clear sky,-35.5667,138.6167,McCracken Country Club
282,Faya,SA,55.51,clear sky,18.3851,42.4509,شيلة نسايم
283,Artyom,AZ,53.74,overcast clouds,40.4723,50.333,
284,Rognan,NO,44.74,broken clouds,67.0953,15.3878,Rognan Hotell
287,Horsham,GB,55.63,moderate rain,51.064,-0.3272,Springfields Hotel
288,Marsh Harbour,BS,79.34,broken clouds,26.5412,-77.0636,Abaco Beach Resort
290,Praia,CV,77.54,few clouds,14.9215,-23.5087,LT Aparthotel
292,Sabana Grande De Boya,DO,77.25,clear sky,18.945,-69.7933,Balcones De Boya
295,Salamiyah,SY,56.17,scattered clouds,35.0113,37.0532,Gondolas Forum grandchildren and grandparents
296,Poplar Bluff,US,42.58,broken clouds,36.757,-90.3929,Holiday Inn Poplar Bluff
298,Seoul,KR,44.04,few clouds,37.5683,126.9778,LOTTE HOTEL SEOUL
299,Riyadh,SA,73.54,clear sky,24.6877,46.7219,"InterContinental Riyadh, an IHG Hotel"
300,Pucallpa,PE,75.24,broken clouds,-8.3791,-74.5539,Hotel Sol de Oriente - Pucallpa
302,Saldanha,ZA,57.25,broken clouds,-33.0117,17.9442,Blue Bay Lodge
303,Protivin,CZ,43.9,overcast clouds,49.1995,14.2172,"""U Šerifa"""
305,Vulcan,RO,45.19,overcast clouds,45.3833,23.2667,Green Paradise Restaurant
308,Camacha,PT,67.42,light intensity drizzle,33.0833,-16.3333,Hotel Porto Santo & Spa
309,Shambu,ET,50.07,scattered clouds,9.5667,37.1,Wabe Hotel
311,Port Lincoln,AU,59.63,clear sky,-34.7333,135.8667,Port Lincoln Hotel
312,Tahoua,NE,72.37,scattered clouds,14.8888,5.2692,Bungalows Guesthouse
313,Harper,LR,77.81,light rain,4.375,-7.7169,Screensaver
314,Shingu,JP,54.28,scattered clouds,33.7333,135.9833,Shingu UI Hotel
317,Maldonado,UY,72.79,clear sky,-34.6667,-54.9167,La Cimarrona
318,Lompoc,US,72.79,clear sky,34.6391,-120.4579,"Holiday Inn Express Lompoc, an IHG Hotel"
321,Port Blair,IN,77.31,overcast clouds,11.6667,92.75,"Welcomhotel By ITC Hotels, Port Blair - Premium Hotel Near the Airport | Idyllic Island Experience Vacation"
322,Melfi,IT,55.96,overcast clouds,40.9965,15.6514,HOTEL TERME DI RAPOLLA
325,San Felipe,VE,73.42,overcast clouds,10.3399,-68.7425,Posada Llovizna Rodríguez
326,Kamina,CD,61.38,overcast clouds,-8.7386,24.9906,LEANIF HOTEL RESTAURANT
327,Farsund,NO,46.06,light rain,58.0948,6.8047,Farsund Fjordhotel
328,Mildura,AU,61.07,clear sky,-34.2,142.15,Mercure Hotel Mildura
330,Winnemucca,US,46.45,clear sky,40.973,-117.7357,Winners Inn Casino
332,Ucluelet,CA,52.09,few clouds,48.9329,-125.5528,Black Rock Oceanfront Resort
338,Isiro,CD,67.32,light rain,2.7739,27.616,Guest House Hewa Bora
340,Mount Gambier,AU,57.42,scattered clouds,-37.8333,140.7667,The Commodore
341,Dumai,ID,72.64,light rain,1.6833,101.45,Grand Zuri Dumai
342,Shima,CN,71.62,clear sky,24.4478,117.8111,龙海钻石大酒店
343,Kloulklubed,PW,75.7,light rain,7.0419,134.2556,Storyboard Beach Resort
344,Kampene,CD,66.63,scattered clouds,-3.6,26.6667,
346,Danjiangkou,CN,51.08,few clouds,32.5428,111.5086,Dongsheng Guesthouse
347,Baran,IN,62.22,clear sky,25.1,76.5167,Hotel shree ji
348,Lagoa,PT,62.78,scattered clouds,39.05,-27.9833,Casa Das Faias
351,Valparaiso,CL,73.63,clear sky,-33.0393,-71.6273,Hotel Ultramar
352,Gouyave,GD,75.97,shower rain,12.1646,-61.7296,Rumboat Retreat
353,Mumbwa,ZM,66.56,clear sky,-14.9783,27.0619,Mumbwa Motel
354,Gambela,ET,72.82,few clouds,8.25,34.5833,Solomon Debebe Hotel
355,Puerto Ayacucho,VE,79.52,light rain,5.6639,-67.6236,Posada Turistica Manapiare
357,Geraldton,AU,63.01,drizzle,-28.7667,114.6,Broadwater Mariner Resort
358,Yadgir,IN,62.83,few clouds,16.7667,77.1333,HOTEL SLV
360,Avera,US,51.85,overcast clouds,33.194,-82.5271,
361,Richards Bay,ZA,71.17,broken clouds,-28.783,32.0377,BON Hotel Waterfront Richards Bay
364,Teluk Nibung,ID,75.42,light rain,3.001,99.8164,Hotel Assyifa
365,Sambava,MG,71.2,scattered clouds,-14.2667,50.1667,Melrose
366,Najran,SA,61.45,clear sky,17.4924,44.1277,محمد هادي ال فطيح
367,Grindavik,IS,48.15,light rain,63.8424,-22.4338,Northern Light Inn & Max's Restaurant
368,Khani,GE,44.17,overcast clouds,41.9563,42.9566,Guest House Kakasxidi სასტუმრო კაკასხიდი
369,Achacachi,BO,47.68,scattered clouds,-16.05,-68.6833,HOSTAL KANSAS CITY
371,Watsa,CD,64.62,light rain,3.0372,29.5355,Hôtel Le Pacifique
372,Tabuk,PH,73.08,few clouds,17.4189,121.4443,Golden Berries Hotel and Convention
373,Sistranda,NO,40.96,clear sky,63.7256,8.834,Hotell Frøya
374,Ponta Delgada,PT,65.5,broken clouds,37.7333,-25.6667,Vila Nova Hotel
377,Yangambi,CD,67.55,light rain,0.8102,24.4336,
378,Mahon,ES,64.96,clear sky,39.8885,4.2658,ARTIEM Capri
379,Grenaa,DK,44.82,scattered clouds,56.4158,10.8783,Hotel Marina
380,Manhush,UA,42.53,overcast clouds,47.0558,37.3107,
381,Batemans Bay,AU,57.09,few clouds,-35.7167,150.1833,Batemans Bay Marina Resort
383,Micheweni,TZ,77.99,light rain,-4.9667,39.8333,
385,Mindelo,CV,74.75,few clouds,16.8901,-24.9804,Hotel Gaudi
386,Awjilah,LY,62.73,clear sky,29.1081,21.2869,
387,Hampton,US,54.0,broken clouds,37.0299,-76.3452,Embassy Suites by Hilton Hampton Convention Center
389,Rocha,UY,61.47,few clouds,-34.4833,-54.3333,Hotel Arrarte
390,Tiznit,MA,64.47,broken clouds,29.5833,-9.5,
391,Inhambane,MZ,73.0,clear sky,-23.865,35.3833,Oceano
392,Umm Kaddadah,SD,68.97,clear sky,13.6017,26.6876,
393,Caravelas,BR,74.77,overcast clouds,-17.7125,-39.2481,Pousada dos Navegantes
394,Forestville,US,45.55,scattered clouds,38.8451,-76.875,Quality Inn Near Joint Base Andrews-Washington Area
395,Portland,US,55.89,few clouds,45.5234,-122.6762,Embassy Suites by Hilton Portland Downtown
396,Fuerte Olimpo,PY,75.09,clear sky,-21.0415,-57.8738,Hospedaje DAMI
397,Brae,GB,48.11,overcast clouds,60.3964,-1.353,Busta House Hotel
399,Maragogi,BR,77.02,scattered clouds,-9.0122,-35.2225,Salinas do Maragogi All Inclusive Resort
400,Trairi,BR,78.96,clear sky,-3.2778,-39.2689,janelas do mar
402,Lucapa,AO,63.63,overcast clouds,-8.4192,20.7447,Lírio Mendes
404,Marawi,PH,70.16,overcast clouds,7.9986,124.2928,Derogongan Residence
406,Tessalit,ML,70.57,scattered clouds,20.1986,1.0114,
408,Ponferrada,ES,56.46,overcast clouds,42.5466,-6.5962,Hotel Temple Ponferrada
409,Hambantota,LK,76.62,overcast clouds,6.1241,81.1185,Bungalow 63
410,Golden,US,42.1,few clouds,39.7555,-105.2211,"The Golden Hotel, Ascend Hotel Collection"
412,Tshela,CD,70.09,overcast clouds,-4.9833,12.9333,Hotel Mirador
414,Kutum,SD,62.53,clear sky,14.2,24.6667,Dibbo areaمنطقة دبو
415,Susangerd,IR,73.74,overcast clouds,31.5608,48.1831,دفتر خدمات هوایی وجهانگردی نسیم گستر دشت آزادگان
417,Mecca,SA,77.95,broken clouds,21.4267,39.8261,"Makkah Clock Royal Tower, A Fairmont Hotel"
418,Salalah,OM,75.29,clear sky,17.0151,54.0924,"HAMDAN PLAZA HOTEL SALALAH, an HTG Hotel"
422,Santa Rosa De Cabal,CO,71.22,broken clouds,4.8681,-75.6214,Hotel Suite Santa Rosa
424,Soyo,AO,76.59,overcast clouds,-6.1349,12.3689,Hospedaria ndozi'ame
425,Nabire,ID,77.81,overcast clouds,-3.3667,135.4833,Hotel Nusantara I
426,Quang Ngai,VN,73.96,clear sky,15.1167,108.8,Central Hotel
428,Kabanjahe,ID,62.33,light rain,3.1001,98.4908,Kos-Kosan wanita muslim bagoes kabanjahe
429,Viedma,AR,61.66,scattered clouds,-40.8135,-62.9967,Hotel Cristal
430,Da Lat,VN,59.14,overcast clouds,11.9465,108.4419,YK Home Villa Dalat
431,Nelson Bay,AU,64.99,light rain,-32.7167,152.15,Mantra Nelson Bay
434,Lukulu,ZM,66.06,broken clouds,-14.3707,23.242,Ruth Guest House
435,Novaya Maka,RU,47.93,overcast clouds,41.7717,48.3615,
436,Kucevo,RS,55.92,overcast clouds,44.4775,21.67,Хотел „Рудник“
437,Birao,CF,70.74,overcast clouds,10.2849,22.7882,
438,Bandarbeyla,SO,78.01,few clouds,9.4942,50.8122,JABIR HOTEL
439,Barkly West,ZA,70.03,few clouds,-28.5354,24.5215,Stafford Parker Guest House
440,Pauini,BR,78.08,heavy intensity rain,-7.7136,-66.9764,Casa do Kiwliks
445,Mangai,CD,68.5,overcast clouds,-4.05,19.5333,
447,Mumford,GH,79.11,broken clouds,5.2618,-0.759,Peace Guest House
449,Kinsale,IE,42.17,fog,51.7075,-8.5306,
451,Ananas,HT,73.38,light rain,19.2466,-71.9557,
455,Lasa,IT,41.88,broken clouds,46.6166,10.7002,Pension Feldgärtenhof
456,Martapura,ID,75.29,few clouds,-3.4167,114.85,Montana Hotel Syariah
457,Matara,LK,74.86,overcast clouds,5.9485,80.5353,Amaloh Boutique Resort
458,Tanabe,JP,55.11,broken clouds,33.7333,135.3667,美吉屋旅館
460,Massaguet,TD,76.32,scattered clouds,12.4755,15.4365,Alwatane
461,Fare,PF,78.98,broken clouds,-16.7,-151.0167,Maitai Lapita Village Huahine
463,Tshikapa,CD,68.47,overcast clouds,-6.4167,20.8,Tatem beach
464,Challans,FR,58.12,overcast clouds,46.8436,-1.8749,Citotel Le Challans
465,Saint-Georges,GD,76.68,shower rain,12.0564,-61.7485,Radisson Grenada Beach Resort
466,Apiai,BR,57.61,clear sky,-24.5094,-48.8425,Pousada Villa Branca
467,Tura,IN,60.24,clear sky,25.5198,90.2201,Hotel RIKMAN Continental
469,Asfi,MA,64.67,scattered clouds,32.2994,-9.2372,Hôtel Abda
470,Katsuura,JP,58.98,broken clouds,35.1333,140.3,Katsuura Hotel Mikazuki
474,Tallahassee,US,56.86,overcast clouds,30.4383,-84.2807,Four Points by Sheraton Tallahassee Downtown
475,Laguna,US,68.29,clear sky,38.421,-121.4238,"Holiday Inn Express & Suites Elk Grove Central - Hwy 99, an IHG Hotel"
476,Lecco,IT,51.06,scattered clouds,45.8533,9.3905,Hotel NH Pontevecchio
478,Itarema,BR,79.05,few clouds,-2.9248,-39.9167,"Sea Lounge! Bar, Club & Restaurant"
479,Obernai,FR,51.4,overcast clouds,48.4631,7.481,Le Parc Hôtel Obernai & Spa
481,Putina,PE,50.29,scattered clouds,-15.4667,-69.4333,Hotel Isla Suasi
482,Winslow,US,48.38,clear sky,35.0242,-110.6974,Best Western Plus Winslow Inn
483,San Gabriel Casa Blanca,MX,76.35,few clouds,18.15,-97.1333,
484,Alice Springs,AU,67.55,broken clouds,-23.7,133.8833,Desert Palms Alice Springs
485,Shenjiamen,CN,63.84,overcast clouds,29.9576,122.298,Jinjiang Inn Zhoushan Putuo Shenjiamen
488,Tiangua,BR,72.01,clear sky,-3.7322,-40.9917,HOTEL SÃO FRANCISCO - TIANGUÁ/CE
489,Nan,TH,69.82,mist,18.8333,100.6667,สะเนียน2
490,Hasaki,JP,50.22,scattered clouds,35.7333,140.8333,Inubosaki Kanko Hotel
492,Sur,OM,75.92,clear sky,22.5667,59.5289,Sur Plaza Hotel
493,Branistea,RO,49.39,overcast clouds,44.6833,25.5833,Bosnac
495,Faanui,PF,79.34,overcast clouds,-16.4833,-151.75,Bora-Bora Pearl Beach Resort & Spa
496,Mpraeso,GH,70.52,broken clouds,6.5932,-0.7346,JAYS Lodge
497,San Quintin,MX,66.6,clear sky,30.4833,-115.95,Don Eddie's Sport Fishing Center
498,Ginir,ET,53.62,clear sky,7.1333,40.7,Sura Dare Village
500,Kisangani,CD,68.27,light rain,0.5167,25.2,Grand Ramela Hotel
504,Bathurst,AU,52.72,clear sky,-33.4166,149.5806,Bathurst Motor Inn
505,Benguela,AO,74.1,overcast clouds,-12.5763,13.4055,Hotel Praia Morena
508,Mingguang,CN,53.78,overcast clouds,32.7802,117.9638,Yonghao Hotel
509,Oruro,BO,66.69,few clouds,-17.9833,-67.15,Eden by BlueBay
510,Peterhead,GB,50.4,moderate rain,57.5058,-1.7981,Palace Hotel
511,Bure,ET,53.71,scattered clouds,10.7,37.0667,Holiday
512,Mananjary,MG,71.82,light rain,-21.2167,48.3333,Vahiny Lodge
514,Phangnga,TH,77.04,overcast clouds,8.4509,98.5298,Sunimit Mansion
515,Lata,PT,63.07,light rain,40.1629,-8.3327,Terraços da Beira
516,Inverness,GB,45.99,moderate rain,57.4791,-4.224,Glen Mhor Hotel & Apartments
517,Marabba,SD,78.01,few clouds,12.35,32.1833,
519,Shangrao,CN,60.04,overcast clouds,28.4532,117.9686,Boyue boutique Hotel
522,Sokoni,TZ,79.07,few clouds,-6.4333,39.55,Ujamaa Beach Resort
527,Jimma,ET,55.96,few clouds,7.6667,36.8333,Jimma Central Hotel
528,Morondava,MG,78.31,light rain,-20.2833,44.2833,La Case Bambou
529,Caluquembe,AO,60.1,broken clouds,-13.7833,14.6833,Hotel Kalukembe
530,Sao Jose Da Coroa Grande,BR,77.22,broken clouds,-8.8978,-35.1478,Crôa Mares Hotel
531,Murnau,DE,42.39,broken clouds,48.2302,12.2943,Wagenspöck Matthias
533,Langenburg,DE,44.92,broken clouds,49.2544,9.8458,Mawell Resort
534,Kroya,ID,77.61,overcast clouds,-7.6331,109.2461,Wisma Legoq Kost
539,Silva Jardim,BR,73.38,overcast clouds,-22.6508,-42.3917,Pousada Ipuca
540,Porgera,PG,56.43,broken clouds,-5.4667,143.2,
541,Kigorobya,UG,65.34,light rain,1.6162,31.3089,Docs sports lounge
543,Coruripe,BR,77.09,broken clouds,-10.1256,-36.1756,Pousada e Hotel Litoral Sul
544,Acarau,BR,79.25,few clouds,-2.8856,-40.12,castelo pizzaria
545,Veraval,IN,75.67,clear sky,20.9,70.3667,Lords Inn Somnath
546,Lugazi,UG,63.0,broken clouds,0.3772,32.9197,Dr Kalumba Moses
547,Saint-Leu,RE,70.63,few clouds,-21.15,55.2833,La Caz Oceane
548,Hofn,IS,45.09,overcast clouds,64.2539,-15.2082,Hótel Höfn
549,Sao Joao Da Barra,BR,75.29,overcast clouds,-21.6403,-41.0511,Pousada Porto De Canoas
550,Port Hueneme,US,76.78,clear sky,34.1478,-119.1951,Hampton Inn Channel Islands Harbor
553,Zhicheng,CN,49.93,clear sky,30.2956,111.5047,Wangjiang Building
555,Acucena,BR,68.52,overcast clouds,-19.0731,-42.5464,Hotel e Restaurante Açucena
556,Grand Gaube,MU,68.4,clear sky,-20.0064,57.6608,Veranda Paul et Virginie Hotel & Spa
557,La Riviera,US,67.95,clear sky,38.5668,-121.3569,Travelodge by Wyndham Sacramento / Rancho Cordova
563,Banyuwangi,ID,76.93,overcast clouds,-8.2325,114.3576,SPOT ON 1842 Cevilla Bnb Residence Syariah
564,Lanzhou,CN,42.69,scattered clouds,36.0564,103.7922,Lanzhou Amdo Xiangbala Hotel
566,Sassandra,CI,76.69,scattered clouds,4.95,-6.0833,la terrasse
569,Ajdabiya,LY,64.71,clear sky,30.7554,20.2263,Almadina Hotel
570,Liwale,TZ,69.3,scattered clouds,-9.7667,37.9333,Tumaini Tulivu Lodge
572,West Haverstraw,US,47.73,broken clouds,41.2095,-73.9854,Budget Motor Inn
573,Pangkalanbuun,ID,75.07,overcast clouds,-2.6833,111.6167,Grand Kecubung Hotel
575,Kiama,AU,65.25,clear sky,-34.6833,150.8667,The Sebel Kiama Harbourside
577,Rio Gallegos,AR,60.85,clear sky,-51.6226,-69.2181,Hotel Santa Cruz
580,Vao,NC,76.17,overcast clouds,-22.6667,167.4833,Hotel Kou-Bugny
583,Rajura,IN,59.74,few clouds,19.7833,79.3667,Bharat Lodge And Restaurant
585,Bambanglipuro,ID,76.84,overcast clouds,-7.95,110.2833,Puri Brata
588,Malumfashi,NG,70.0,clear sky,11.7853,7.6218,INFINITY CYBER CAFE MALUMFASHI
589,Ganzhou,CN,58.26,overcast clouds,28.8184,115.4327,Zhanqian Grand Hotel
591,Felipe Carrillo Puerto,MX,79.79,scattered clouds,19.5833,-88.05,Hotel La Ceiba
593,Ayolas,PY,72.64,clear sky,-27.4,-56.9,Hotel Ayolas
594,Tarui,JP,54.86,broken clouds,35.3667,136.5333,Posada Casa Eco
595,Tuatapere,NZ,58.69,light rain,-46.1333,167.6833,Ron and Tony's Bed & Breakfast
596,Margate,GB,54.3,overcast clouds,51.3813,1.3862,Premier Inn Margate hotel
598,Tautira,PF,77.47,overcast clouds,-17.7333,-149.15,Pension Oaoa
599,Olafsvik,IS,44.26,overcast clouds,64.8945,-23.7142,Hotel Olafsvik
602,Tongchuan,CN,43.3,clear sky,35.0806,109.0897,Tongchuan Hotel
603,Swan Hill,AU,57.02,clear sky,-35.3378,143.5544,Lazy River Motor Inn
604,Raudeberg,NO,50.86,clear sky,61.9875,5.1352,Nordre Silda.
605,Faridpur,BD,67.62,clear sky,23.6,89.8333,Progoti Muslim hostel
606,Greenville,US,55.56,clear sky,35.6127,-77.3663,"Holiday Inn Express Greenville, an IHG Hotel"
607,Quatre Cocos,MU,68.11,clear sky,-20.2078,57.7625,Sunrise Attitude Hotel
609,Eguia,PH,78.33,scattered clouds,15.9065,119.8858,Rosmin Nature's Hub Resort
610,Santa Vitoria,BR,79.09,clear sky,-18.8386,-50.1214,Center Hotel
612,Polewali,ID,78.67,overcast clouds,-3.4324,119.3435,Lilianto Hotel
613,Lasem,ID,78.46,overcast clouds,-6.6922,111.4527,"Nyah Lasem | Museum, Warung & Community Center"
614,Shetpe,KZ,40.5,overcast clouds,44.1667,52.1167,Нұрберген Абыл
619,Messina,IT,65.79,broken clouds,38.1933,15.5497,Hotel Touring
621,San Vicente,AR,62.31,clear sky,-26.6167,-54.1333,Complejo Turístico Farelluk
622,Juybar,IR,55.8,scattered clouds,36.6412,52.9124,مجتمع مسکونی آرامیس ۲
625,Cacule,BR,67.62,overcast clouds,-14.5033,-42.2222,"Radar Palace Hotel: Suítes, Apartamentos, Hospedagem em Caculé BA"
626,Tamandare,BR,77.11,broken clouds,-8.7597,-35.1047,Pousada 100 Passos
627,Florence,IT,58.53,few clouds,43.7667,11.25,Hotel Nuova Italia
628,Orbetello,IT,55.42,clear sky,42.4408,11.2196,Argentario Golf & Wellness Resort
629,Chuzhou,CN,54.68,overcast clouds,32.3219,118.2978,GreenTree Inn Chuzhou Langya Mountain Scenic Area Xijian Road Business Hotel
631,Upington,ZA,70.18,scattered clouds,-28.4478,21.2561,River Place Manor
632,Beboto,TD,72.46,broken clouds,8.2668,16.939,
635,Itaperucu,BR,65.61,clear sky,-25.22,-49.3478,DR Hotel Rio Branco do Sul
637,Saint-Francois,FR,53.04,clear sky,46.4154,3.9054,Maison Vin d'Hus
638,Ahipara,NZ,67.06,scattered clouds,-35.1667,173.1667,Ahipara Holiday Park
639,Inongo,CD,69.87,overcast clouds,-1.95,18.2667,Hotel Du Lac
641,Vila,PT,52.68,overcast clouds,42.0304,-8.1588,Hotel Castrum Villae by Walk Hotels
642,Oudtshoorn,ZA,61.16,overcast clouds,-33.5907,22.2014,Earthbound Guest House
643,Tokmak,UA,46.33,light rain,47.2514,35.7058,Дом приезжих
645,Nyimba,ZM,72.48,clear sky,-14.5566,30.8149,Dali Dali Lodge
646,Sinnamary,GF,78.91,overcast clouds,5.3833,-52.95,ALETHEIA Appartement Sinnamary
647,Lingao,CN,73.85,scattered clouds,19.9103,109.6859,Lingao Ditai Inn
649,Fayaoue,NC,79.3,overcast clouds,-20.65,166.5333,Chez Dydyce Guesthouse
654,Lakhimpur,IN,61.0,clear sky,27.95,80.7667,Hotel Landmark Royale & Funn Mall Lakhimpur Kheri
656,Salvador,SV,76.55,broken clouds,13.8333,-88.9167,Chico's Ranch
657,Guerrero Negro,MX,74.55,clear sky,27.9769,-114.0611,"Casa Laguna, Bed & Breakfast"
658,Santa Maria Da Vitoria,BR,69.96,overcast clouds,-13.3947,-44.1886,Pousada Rio Current
659,Qinhuangdao,CN,45.75,clear sky,39.9317,119.5883,Qinhuangdao Peninsula Seasons Hotel And Apartment
660,La Rioja,ES,42.58,overcast clouds,42.25,-2.5,Casa Concejos
661,Akim Swedru,GH,74.25,overcast clouds,5.8938,-1.0164,JOMIKUS GUEST HOUSE
662,Lisala,CD,72.59,overcast clouds,2.15,21.5167,Guest house Eden
665,Gemena,CD,71.4,overcast clouds,3.25,19.7667,Hôtel Goshen
667,Husavik,IS,42.51,overcast clouds,66.0449,-17.3389,Bjarnabúð
668,Lashio,MM,52.97,clear sky,22.9333,97.75,Hotel CF Lashio - Burmese Only
669,Gua Musang,MY,74.07,overcast clouds,4.8823,101.9644,Mines Inn Hotel
670,Porto Belo,BR,73.35,clear sky,-27.1578,-48.5531,Costa Verde Beach Hotel
671,Buchanan,LR,77.45,light rain,5.8808,-10.0467,Kamaneahn Hotel Inc
673,Capoterra,IT,60.55,clear sky,39.1763,8.9718,Ariedo Bed And Breakfast
674,Mamallapuram,IN,75.25,scattered clouds,12.6264,80.1722,Radisson Blu Resort Temple Bay Mamallapuram
675,San Jose,US,70.88,few clouds,37.3394,-121.895,The Westin San Jose
676,Fort Abbas,PK,65.77,clear sky,29.1925,72.8536,AsAd's House
679,Mocuba,MZ,71.71,clear sky,-16.8392,36.9856,Phama Lodge
680,Atambua,ID,79.18,overcast clouds,-9.1061,124.8925,Ros Muskanan
681,Arlit,NE,69.53,clear sky,18.7369,7.3853,Case de Passage De la Prefecture
683,Benavente,ES,55.65,overcast clouds,42.0025,-5.6783,Parador de Benavente
685,Locri,IT,63.32,overcast clouds,38.2414,16.2623,Grand Hotel President
687,Rajmahal,IN,64.15,clear sky,25.05,87.8333,Marrage hall (विवाह भवन)
690,Coquimbo,CL,62.33,scattered clouds,-29.9533,-71.3436,Hotel San Juan
693,Phalombe,MW,68.81,few clouds,-15.8064,35.6507,RIVONIA
694,Ughelli,NG,76.24,scattered clouds,5.4899,6.0074,Prestige Hotel
696,Sao Filipe,CV,77.74,scattered clouds,14.8961,-24.4956,Hotel Xaguate
697,Rio Claro,BR,72.37,scattered clouds,-22.4114,-47.5614,Hotel Vivendas Rio Claro by Atlantica
698,Savannakhet,LA,70.81,clear sky,16.566,104.751,โรงแรม ริเวอร์ ฟร้อนท์ (Riverfront Hotel)
699,Sao Marcos,BR,56.16,clear sky,-28.9711,-51.0681,Hotel São Marcos
700,Prince Rupert,CA,47.89,overcast clouds,54.3161,-130.3201,Crest Hotel
701,Mehriz,IR,52.3,scattered clouds,31.5917,54.4318,Mehrgard dwelling/سرای مهرگرد
702,Northam,GB,49.6,light rain,51.0333,-4.2167,Durrant House Hotel
703,Marzuq,YE,62.83,few clouds,14.4,46.4667,حيد القفلة
705,Halifax,CA,50.22,moderate rain,44.6453,-63.5724,Hotel Halifax
708,Ha Giang,VN,72.93,overcast clouds,22.8333,104.9833,Truong Xuan Resort
709,Boyolangu,ID,77.22,overcast clouds,-8.1181,111.8935,Yos ega cv
710,Tirur,IN,74.39,overcast clouds,10.9,75.9167,Sangamam Residency
